{"ticker": "AAPL", "name": "Apple", "quick_ratio": 0.764, "address": "One Apple Park Way, Cupertino, CA, 95014, United States", "lat": 37.3228934, "lon": -122.0322895}
{"ticker": "ABBV", "name": "AbbVie", "quick_ratio": 0.659, "address": "1 North Waukegan Road, North Chicago, IL, 60064-6400, United States", "lat": 42.3080289, "lon": -87.8919262}
{"ticker": "ABNB", "name": "Airbnb", "quick_ratio": 0.883, "address": "888 Brannan Street, San Francisco, CA, 94103, United States", "lat": 37.7719568, "lon": -122.4054484}
{"ticker": "ABT", "name": "Abbott Laboratories", "quick_ratio": 1.07, "address": "100 Abbott Park Road, North Chicago, IL, 60064-6400, United States", "lat": 42.325578, "lon": -87.8411818}
{"ticker": "ADBE", "name": "Adobe", "quick_ratio": 1.033, "address": "345 Park Avenue, San Jose, CA, 95110-2704, United States", "lat": 37.328638587823164, "lon": -121.89701816587045}
{"ticker": "ADI", "name": "Analog Devices", "quick_ratio": 1.056, "address": "One Analog Way, Wilmington, MA, 01887, United States", "lat": 42.5464828, "lon": -71.1736669}
{"ticker": "ADP", "name": "Automatic Data Processing", "quick_ratio": 0.096, "address": "One ADP Boulevard, Roseland, NJ, 07068, United States", "lat": 40.8206555, "lon": -74.2937595}
{"ticker": "AMAT", "name": "Applied Materials", "quick_ratio": 1.372, "address": "3050 Bowers Avenue, Santa Clara, CA, 95054-3299, United States", "lat": 37.376829, "lon": -121.97789}
{"ticker": "AMD", "name": "AMD", "quick_ratio": 1.518, "address": "2485 Augustine Drive, Santa Clara, CA, 95054, United States", "lat": 37.3829605, "lon": -121.9703774}
{"ticker": "AMGN", "name": "Amgen", "quick_ratio": 2.624, "address": "One Amgen Center Drive, Thousand Oaks, CA, 91320-1799, United States", "lat": 34.1705609, "lon": -118.8375937}
{"ticker": "AMT", "name": "American Tower", "quick_ratio": 0.382, "address": "116 Huntington Avenue, Boston, MA, 02116-5749, United States", "lat": 42.346409, "lon": -71.080116}
{"ticker": "AMZN", "name": "Amazon", "quick_ratio": 0.689, "address": "410 Terry Avenue North, Seattle, WA, 98109-5210, United States", "lat": 47.62225397959184, "lon": -122.33702828571428}
{"ticker": "AVGO", "name": "Broadcom", "quick_ratio": 1.942, "address": "1320 Ridder Park Drive, San Jose, CA, 95131-2313, United States", "lat": 37.3875416, "lon": -121.8998511}
{"ticker": "AXP", "name": "American Express", "quick_ratio": 1.564, "address": "200 Vesey Street, New York, NY, 10285, United States", "lat": 40.71364135, "lon": -74.01482043211588}
{"ticker": "BA", "name": "Boeing", "quick_ratio": 0.294, "address": "929 Long Bridge Drive, Arlington, VA, 22202, United States", "lat": 38.8645633, "lon": -77.05018939921479}
{"ticker": "BAC", "name": "Bank of America", "quick_ratio": 0.0, "address": "Bank of America Corporate Center, Charlotte, NC, 28255, United States", "lat": 35.2272086, "lon": -80.8430827}
{"ticker": "BKNG", "name": "Booking Holdings (Booking.com)", "quick_ratio": 1.495, "address": "800 Connecticut Avenue, Norwalk, CT, 06854, United States", "lat": 41.0956718, "lon": -73.4219246}
{"ticker": "BLK", "name": "BlackRock", "quick_ratio": 1.042, "address": "50 Hudson Yards, New York, NY, 10001, United States", "lat": 40.7545301, "lon": -74.00012199340097}
{"ticker": "BMY", "name": "Bristol-Myers Squibb", "quick_ratio": 1.188, "address": "430 East 29th Street, New York, NY, 10016, United States", "lat": 40.7396779, "lon": -73.9737622}
{"ticker": "BRK-B", "name": "Berkshire Hathaway", "quick_ratio": 1.287, "address": "3555 Farnam Street, Omaha, NE, 68131, United States", "lat": 41.25734685, "lon": -95.96582200049019}
{"ticker": "C", "name": "Citigroup", "quick_ratio": 0.0, "address": "388 Greenwich Street, New York, NY, 10013, United States", "lat": 40.72064575, "lon": -74.01117211586508}
{"ticker": "CAT", "name": "Caterpillar", "quick_ratio": 0.0, "address": "929 Long Bridge Drive, Arlington, VA, 22202, United States", "lat": 38.8645633, "lon": -77.05018939921479}
{"ticker": "CI", "name": "Cigna", "quick_ratio": 0.591, "address": "900 Cottage Grove Road, Bloomfield, CT, 06002, United States", "lat": 41.8164341, "lon": -72.6963465}
{"ticker": "CMCSA", "name": "Comcast", "quick_ratio": 0.55, "address": "One Comcast Center, Philadelphia, PA, 19103-2838, United States", "lat": 39.9527237, "lon": -75.1635262}
{"ticker": "COP", "name": "ConocoPhillips", "quick_ratio": 1.204, "address": "925 North Eldridge Parkway, Houston, TX, 77079-2703, United States", "lat": 29.7827932, "lon": -95.6186104934794}
{"ticker": "COST", "name": "Costco", "quick_ratio": 0.511, "address": "999 Lake Drive, Issaquah, WA, 98027, United States", "lat": 47.54860335, "lon": -122.05061792909837}
{"ticker": "CRM", "name": "Salesforce", "quick_ratio": 0.86, "address": "Salesforce Tower, San Francisco, CA, 94105, United States", "lat": 37.78977435, "lon": -122.3969321220982}
{"ticker": "CSCO", "name": "Cisco", "quick_ratio": 1.107, "address": "170 West Tasman Drive, San Jose, CA, 95134-1706, United States", "lat": 37.4083584, "lon": -121.95409085024838}
{"ticker": "CVS", "name": "CVS Health", "quick_ratio": 0.614, "address": "One CVS Drive, Woonsocket, RI, 02895, United States", "lat": 42.0028761, "lon": -71.5147839}
{"ticker": "CVX", "name": "Chevron", "quick_ratio": 1.028, "address": "6001 Bollinger Canyon Road, San Ramon, CA, 94583-2324, United States", "lat": 37.7583351, "lon": -121.95945809117993}
{"ticker": "DE", "name": "Deere & Company", "quick_ratio": 1.722, "address": "One John Deere Place, Moline, IL, 61265, United States", "lat": 41.5058344, "lon": -90.5136642}
{"ticker": "DHR", "name": "Danaher", "quick_ratio": 1.349, "address": "2200 Pennsylvania Avenue, North West, Washington, DC, 20037-1701, United States", "lat": 38.8950368, "lon": -77.0365427}
{"ticker": "DIS", "name": "Walt Disney", "quick_ratio": 0.826, "address": "500 South Buena Vista Street, Burbank, CA, 91521, United States", "lat": 37.2983054, "lon": -120.4815862}
{"ticker": "ELV", "name": "Elevance Health", "quick_ratio": 1.304, "address": "220 Virginia Avenue, Indianapolis, IN, 46204, United States", "lat": 39.763166350000006, "lon": -86.1508708087034}
{"ticker": "FI", "name": "Fiserv", "quick_ratio": 0.233, "address": "255 Fiserv Drive, Brookfield, WI, 53045, United States", "lat": 43.03412428904626, "lon": -88.14024337205765}
{"ticker": "GE", "name": "General Electric", "quick_ratio": 0.802, "address": "5 Necco Street, Boston, MA, 02210, United States", "lat": 42.3494242, "lon": -71.0512577}
{"ticker": "GILD", "name": "Gilead Sciences", "quick_ratio": 1.014, "address": "333 Lakeside Drive, Foster City, CA, 94404, United States", "lat": 37.568163, "lon": -122.283238}
{"ticker": "GOOG", "name": "Alphabet (Google)", "quick_ratio": 2.195, "address": "1600 Amphitheatre Parkway, Mountain View, CA, 94043, United States", "lat": 37.4217636, "lon": -122.084614}
{"ticker": "GS", "name": "Goldman Sachs", "quick_ratio": 1.54, "address": "200 West Street, New York, NY, 10282, United States", "lat": 40.7147553, "lon": -74.01441859133114}
{"ticker": "HCA", "name": "HCA Healthcare", "quick_ratio": 0.87, "address": "One Park Plaza, Nashville, TN, 37203, United States", "lat": 36.1622767, "lon": -86.7742984}
{"ticker": "HD", "name": "Home Depot", "quick_ratio": 0.215, "address": "2455 Paces Ferry Road, Atlanta, GA, 30339, United States", "lat": 33.7489924, "lon": -84.3902644}
{"ticker": "HON", "name": "Honeywell", "quick_ratio": 0.854, "address": "855 South Mint Street, Charlotte, NC, 28202, United States", "lat": 35.224359447656056, "lon": -80.85178222334545}
{"ticker": "IBM", "name": "IBM", "quick_ratio": 0.982, "address": "One New Orchard Road, Armonk, NY, 10504, United States", "lat": 41.1264847, "lon": -73.7139777}
{"ticker": "INTC", "name": "Intel", "quick_ratio": 1.152, "address": "2200 Mission College Boulevard, Santa Clara, CA, 95054-1549, United States", "lat": 37.3882663, "lon": -121.963779}
{"ticker": "INTU", "name": "Intuit", "quick_ratio": 1.13, "address": "2700 Coast Avenue, Mountain View, CA, 94043, United States", "lat": 37.43062325, "lon": -122.09609391619645}
{"ticker": "ISRG", "name": "Intuitive Surgical", "quick_ratio": 4.398, "address": "1020 Kifer Road, Sunnyvale, CA, 94086-5304, United States", "lat": 37.3770861, "lon": -122.0196927}
{"ticker": "JNJ", "name": "Johnson & Johnson", "quick_ratio": 0.678, "address": "One Johnson & Johnson Plaza, New Brunswick, NJ, 08933, United States", "lat": 40.4862174, "lon": -74.4518173}
{"ticker": "JPM", "name": "JPMorgan Chase", "quick_ratio": 0.0, "address": "383 Madison Avenue, New York, NY, 10179, United States", "lat": 40.9138283, "lon": -73.803273}
{"ticker": "KO", "name": "Coca-Cola", "quick_ratio": 0.809, "address": "One Coca-Cola Plaza, Atlanta, GA, 30313, United States", "lat": 33.77086765, "lon": -84.3966252798906}
{"ticker": "LLY", "name": "Eli Lilly", "quick_ratio": 0.789, "address": "Lilly Corporate Center, Indianapolis, IN, 46285, United States", "lat": 39.75761315, "lon": -86.15215107252007}
{"ticker": "LMT", "name": "Lockheed Martin", "quick_ratio": 1.072, "address": "6801 Rockledge Drive, Bethesda, MD, 20817, United States", "lat": 39.0303211679115, "lon": -77.1371161910372}
{"ticker": "LOW", "name": "Lowe's Companies", "quick_ratio": 0.176, "address": "1000 Lowe\u2019s Boulevard, Mooresville, NC, 28117, United States", "lat": 35.5848596, "lon": -80.8100724}
{"ticker": "LRCX", "name": "Lam Research", "quick_ratio": 1.943, "address": "4650 Cushing Parkway, Fremont, CA, 94538, United States", "lat": 37.488614150000004, "lon": -121.95699579099801}
{"ticker": "MA", "name": "Mastercard", "quick_ratio": 0.768, "address": "2000 Purchase Street, Purchase, NY, 10577, United States", "lat": 41.0382794, "lon": -73.7143357}
{"ticker": "MCD", "name": "McDonald", "quick_ratio": 1.251, "address": "110 North Carpenter Street, Chicago, IL, 60607, United States", "lat": 41.883615, "lon": -87.65377940116018}
{"ticker": "MDLZ", "name": "Mondelez", "quick_ratio": 0.429, "address": "905 West Fulton Market, Chicago, IL, 60607, United States", "lat": 41.8867943, "lon": -87.6469308}
{"ticker": "META", "name": "Meta Platforms (Facebook)", "quick_ratio": 1.91, "address": "1601 Willow Road, Menlo Park, CA, 94025, United States", "lat": 37.4500757, "lon": -122.1716742}
{"ticker": "MMC", "name": "Marsh & McLennan Companies", "quick_ratio": 1.02, "address": "1166 Avenue of the Americas, New York, NY, 10036-2774, United States", "lat": 40.756877849999995, "lon": -73.98200360000001}
{"ticker": "MO", "name": "Altria Group", "quick_ratio": 0.625, "address": "6601 West Broad Street, Richmond, VA, 23230, United States", "lat": 37.5807129, "lon": -77.4924578}
{"ticker": "MRK", "name": "Merck", "quick_ratio": 0.95, "address": "126 East Lincoln Avenue, Rahway, NJ, 07065, United States", "lat": 40.60987239393939, "lon": -74.25846627272728}
{"ticker": "MS", "name": "Morgan Stanley", "quick_ratio": 1.67, "address": "1585 Broadway, New York, NY, 10036, United States", "lat": 40.7127281, "lon": -74.0060152}
{"ticker": "MSFT", "name": "Microsoft", "quick_ratio": 1.655, "address": "One Microsoft Way, Redmond, WA, 98052-6399, United States", "lat": 47.6694141, "lon": -122.1238767}
{"ticker": "NEE", "name": "Nextera Energy", "quick_ratio": 0.245, "address": "700 Universe Boulevard, Juno Beach, FL, 33408, United States", "lat": 26.858251, "lon": -80.060074}
{"ticker": "NFLX", "name": "Netflix", "quick_ratio": 1.065, "address": "121 Albright Way, Los Gatos, CA, 95032, United States", "lat": 37.25692425, "lon": -121.96393890663734}
{"ticker": "NKE", "name": "Nike", "quick_ratio": 1.6, "address": "One Bowerman Drive, Beaverton, OR, 97005-6453, United States", "lat": 45.4871723, "lon": -122.80378}
{"ticker": "NOW", "name": "ServiceNow", "quick_ratio": 1.045, "address": "2225 Lawson Lane, Santa Clara, CA, 95054, United States", "lat": 37.2333253, "lon": -121.6846349}
{"ticker": "NVDA", "name": "NVIDIA", "quick_ratio": 2.672, "address": "2788 San Tomas Expressway, Santa Clara, CA, 95051, United States", "lat": 37.3714739, "lon": -121.9678767}
{"ticker": "ORCL", "name": "Oracle", "quick_ratio": 0.775, "address": "2300 Oracle Way, Austin, TX, 78741, United States", "lat": 30.243505, "lon": -97.721831}
{"ticker": "PEP", "name": "Pepsico", "quick_ratio": 0.607, "address": "700 Anderson Hill Road, Purchase, NY, 10577, United States", "lat": 41.03486335, "lon": -73.69283077813627}
{"ticker": "PFE", "name": "Pfizer", "quick_ratio": 0.969, "address": "66 Hudson Boulevard East, New York, NY, 10001-2192, United States", "lat": 40.7552497, "lon": -73.99958174474746}
{"ticker": "PG", "name": "Procter & Gamble", "quick_ratio": 0.344, "address": "One Procter & Gamble Plaza, Cincinnati, OH, 45202, United States", "lat": 39.10303995, "lon": -84.50758184680925}
{"ticker": "PGR", "name": "Progressive", "quick_ratio": 0.266, "address": "6300 Wilson Mills Road, Mayfield, OH, 44143, United States", "lat": 41.538865, "lon": -81.452848}
{"ticker": "PLD", "name": "Prologis", "quick_ratio": 0.338, "address": "Pier 1, Bay 1, San Francisco, CA, 94111, United States", "lat": 37.7790262, "lon": -122.419906}
{"ticker": "PM", "name": "Philip Morris", "quick_ratio": 0.306, "address": "677 Washington Boulevard, Stamford, CT, 06901, United States", "lat": 41.0489949, "lon": -73.541307}
{"ticker": "QCOM", "name": "QUALCOMM", "quick_ratio": 1.318, "address": "5775 Morehouse Drive, San Diego, CA, 92121-1714, United States", "lat": 32.8959414, "lon": -117.19581947763047}
{"ticker": "REGN", "name": "Regeneron Pharmaceuticals", "quick_ratio": 4.541, "address": "777 Old Saw Mill River Road, Tarrytown, NY, 10591-6707, United States", "lat": 41.07901045, "lon": -73.82309513453538}
{"ticker": "RTX", "name": "Raytheon Technologies", "quick_ratio": 0.715, "address": "1000 Wilson Boulevard, Arlington, VA, 22209, United States", "lat": 38.8941639, "lon": -77.069626}
{"ticker": "SBUX", "name": "Starbucks", "quick_ratio": 0.508, "address": "2401 Utah Avenue South, Seattle, WA, 98134, United States", "lat": 47.5807667, "lon": -122.33591793436466}
{"ticker": "SCHW", "name": "Charles Schwab", "quick_ratio": 0.388, "address": "3000 Schwab Way, Westlake, TX, 76262, United States", "lat": 32.9970331, "lon": -97.2081658}
{"ticker": "SLB", "name": "Schlumberger", "quick_ratio": 0.823, "address": "5599 San Felipe, Houston, TX, 77056, United States", "lat": 29.7589382, "lon": -95.3676974}
{"ticker": "SO", "name": "Southern Company", "quick_ratio": 0.321, "address": "30 Ivan Allen Jr. Boulevard, N.W., Atlanta, GA, 30308, United States", "lat": 33.7489924, "lon": -84.3902644}
{"ticker": "SPGI", "name": "S&P Global", "quick_ratio": 0.607, "address": "55 Water Street, New York, NY, 10041, United States", "lat": 40.7127281, "lon": -74.0060152}
{"ticker": "SYK", "name": "Stryker Corporation", "quick_ratio": 0.848, "address": "2825 Airview Boulevard, Kalamazoo, MI, 49002, United States", "lat": 42.24191638383839, "lon": -85.55646472727273}
{"ticker": "T", "name": "AT&T", "quick_ratio": 0.301, "address": "208 South Akard Street, Dallas, TX, 75202, United States", "lat": 32.7796042, "lon": -96.79876303794096}
{"ticker": "TJX", "name": "TJX Companies", "quick_ratio": 0.537, "address": "770 Cochituate Road, Framingham, MA, 01701, United States", "lat": 42.308760889263624, "lon": -71.38275509294627}
{"ticker": "TMO", "name": "Thermo Fisher Scientific", "quick_ratio": 0.805, "address": "168 Third Avenue, Waltham, MA, 02451, United States", "lat": 42.39227055, "lon": -71.26118667935421}
{"ticker": "TMUS", "name": "T-Mobile US", "quick_ratio": 0.603, "address": "12920 SE 38th Street, Bellevue, WA, 98006-1350, United States", "lat": 47.576149490347774, "lon": -122.16846343284939}
{"ticker": "TSLA", "name": "Tesla", "quick_ratio": 0.932, "address": "1 Tesla Road, Austin, TX, 78725, United States", "lat": 30.2711286, "lon": -97.7436995}
{"ticker": "TXN", "name": "Texas Instruments", "quick_ratio": 3.933, "address": "12500 TI Boulevard, Dallas, TX, 75243, United States", "lat": 32.910586, "lon": -96.758035}
{"ticker": "UBER", "name": "Uber", "quick_ratio": 0.858, "address": "1515 3rd Street, San Francisco, CA, 94158, United States", "lat": 37.7692333, "lon": -122.3890705}
{"ticker": "UNH", "name": "UnitedHealth", "quick_ratio": 0.718, "address": "UnitedHealth Group Center, Minnetonka, MN, 55343, United States", "lat": 44.9405086, "lon": -93.4638936}
{"ticker": "UNP", "name": "Union Pacific Corporation", "quick_ratio": 0.489, "address": "1400 Douglas Street, Omaha, NE, 68179, United States", "lat": 41.2592348, "lon": -95.9351915429996}
{"ticker": "UPS", "name": "United Parcel Service", "quick_ratio": 1.228, "address": "55 Glenlake Parkway, N.E., Atlanta, GA, 30328, United States", "lat": 33.7489924, "lon": -84.3902644}
{"ticker": "V", "name": "Visa", "quick_ratio": 1.082, "address": "PO Box 8999, San Francisco, CA, 94128-8999, United States", "lat": 37.7790262, "lon": -122.419906}
{"ticker": "VRTX", "name": "Vertex Pharmaceuticals", "quick_ratio": 3.953, "address": "50 Northern Avenue, Boston, MA, 02210, United States", "lat": 42.3533809, "lon": -71.0461504}
{"ticker": "VZ", "name": "Verizon", "quick_ratio": 0.54, "address": "1095 Avenue of the Americas, New York, NY, 10036, United States", "lat": 40.7546492, "lon": -73.9848111972441}
{"ticker": "WFC", "name": "Wells Fargo", "quick_ratio": 0.0, "address": "420 Montgomery Street, San Francisco, CA, 94104, United States", "lat": 37.793125795918364, "lon": -122.4027177755102}
{"ticker": "WMT", "name": "Walmart", "quick_ratio": 0.191, "address": "702 South West 8th Street, Bentonville, AR, 72716, United States", "lat": 36.3728538, "lon": -94.2088172}
{"ticker": "XOM", "name": "Exxon Mobil", "quick_ratio": 1.072, "address": "5959 Las Colinas Boulevard, Irving, TX, 75039-2298, United States", "lat": 32.8841023, "lon": -96.9402722}
{"ticker": "ZTS", "name": "Zoetis", "quick_ratio": 1.721, "address": "10 Sylvan Way, Parsippany, NJ, 07054, United States", "lat": 40.847618, "lon": -74.450556}
